City_ID,City,Lat,Lng,Max Temp,Humidity,Cloudiness,Wind Speed,Country,Date
0,port mathurin,-19.6833,63.4167,27.32,78,100,8.52,MU,1706642449
1,stanley,54.868,-1.6985,4.74,82,20,3.09,GB,1706642077
2,pariaman,-0.619,100.12,27.03,83,100,1.77,ID,1706642449
3,margaret river,-33.95,115.0667,14.75,87,2,4.44,AU,1706642450
4,yellowknife,62.456,-114.3525,-9.71,92,100,6.17,CA,1706642078
5,thabazimbi,-24.5917,27.4116,24.38,58,12,2.19,ZA,1706642450
6,hithadhoo,-0.6,73.0833,27.74,76,100,3.21,MV,1706642450
7,iqaluit,63.7506,-68.5145,-20.15,64,40,5.14,CA,1706642451
8,waitangi,-43.9535,-176.5597,17.12,98,100,2.24,NZ,1706642451
9,qaqortoq,60.7167,-46.0333,-23.12,75,25,3.92,GL,1706642451
10,ambon,-3.6954,128.1814,26.71,14,40,3.09,ID,1706642451
11,wailua homesteads,22.0669,-159.378,23.24,82,40,1.79,US,1706642452
12,antalaha,-14.9003,50.2788,25.05,87,100,3.51,MG,1706642452
13,ilulissat,69.2167,-51.1,-22.99,49,20,5.66,GL,1706642452
14,papatowai,-46.5619,169.4708,12.01,83,66,3.65,NZ,1706642453
15,taulaga,-11.0553,-171.0883,28.42,68,100,3.46,AS,1706642453
16,revda,56.801,59.9303,-7.51,94,100,3.9,RU,1706642453
17,greenville,35.6127,-77.3663,11.19,51,0,1.54,US,1706642228
18,west island,-12.1568,96.8225,26.99,74,40,2.57,CC,1706642454
19,utrik,11.2278,169.8474,26.01,74,100,9.68,MH,1706642454
20,san luis de la loma,17.2706,-100.8939,29.73,57,100,2.56,MX,1706642454
21,prien,30.1819,-93.2738,22.01,42,0,5.66,US,1706642455
22,bethel,41.3712,-73.414,2.51,66,100,0.45,US,1706642412
23,afaahiti,-17.75,-149.2833,28.93,82,100,2.59,PF,1706642455
24,olyokminsk,60.3736,120.4264,-38.84,100,45,1.43,RU,1706642415
25,fort bragg,35.139,-79.006,13.84,48,0,2.68,US,1706642456
26,warman,52.3168,-106.5679,5.95,70,75,6.17,CA,1706642456
27,whitehorse,60.7161,-135.0538,3.43,75,40,6.17,CA,1706642398
28,isafjordur,66.0755,-23.124,-3.16,81,100,4.14,IS,1706642416
29,hawaiian paradise park,19.5933,-154.9731,27.72,73,0,0.45,US,1706642457
30,port elizabeth,-33.918,25.5701,23.51,80,40,1.03,ZA,1706642457
31,kingscliff,-28.2667,153.5667,25.41,83,100,3.09,AU,1706642458
32,cockburn town,21.4612,-71.1419,23.56,59,0,6.72,TC,1706642458
33,hamilton,39.1834,-84.5333,2.27,93,100,4.12,US,1706642312
34,nar'yan-mar,67.6713,53.087,-2.72,93,96,6.71,RU,1706642249
35,longyearbyen,78.2186,15.6401,-4.09,68,75,4.63,SJ,1706642459
36,adamstown,-25.066,-130.1015,23.07,94,100,10.47,PN,1706642459
37,luderitz,-26.6481,15.1594,19.65,84,0,5.59,NA,1706642460
38,vadso,70.0744,29.7487,3.09,75,40,11.63,NO,1706642460
39,hermanus,-34.4187,19.2345,21.56,72,100,5.43,ZA,1706642460
40,port-aux-francais,-49.35,70.2167,3.84,72,70,14.58,TF,1706642461
41,turkmenbasy,40.0222,52.9552,2.43,87,100,0.0,TM,1706642461
42,ghat,24.9647,10.1728,13.73,33,0,3.82,LY,1706642461
43,chonchi,-42.6128,-73.8092,22.56,45,37,1.65,CL,1706642462
44,kerikeri,-35.2268,173.9474,18.84,91,18,2.24,NZ,1706642462
45,kalamata,37.0389,22.1142,7.87,42,20,5.66,GR,1706642463
46,pangody,65.85,74.4859,-20.04,94,33,7.35,RU,1706642463
47,dhidhdhoo,6.8833,73.1,28.1,73,14,4.5,MV,1706642463
48,khanty-mansiysk,61.0042,69.0019,-13.94,78,40,4.02,RU,1706642464
49,zvishavane,-20.3267,30.0665,22.19,53,12,1.75,ZW,1706642464
50,sitka,57.0531,-135.33,2.94,81,100,4.12,US,1706642319
51,pacific grove,36.6177,-121.9166,19.1,83,0,5.36,US,1706642444
52,grytviken,-54.2811,-36.5092,5.13,74,20,5.22,GS,1706642077
53,guilin,25.2819,110.2864,10.06,98,100,0.4,CN,1706642465
54,edinburgh of the seven seas,-37.0676,-12.3116,14.72,61,48,6.6,SH,1706642465
55,touros,-5.1989,-35.4608,29.35,65,15,7.25,BR,1706642466
56,vorkuta,67.5,64.0,-13.35,96,100,4.6,RU,1706642466
57,enewetak,11.3474,162.3373,26.29,72,100,9.04,MH,1706642466
58,codajas,-3.8367,-62.0569,31.29,62,94,1.4,BR,1706642467
59,tiksi,71.6872,128.8694,-28.09,99,46,2.08,RU,1706642467
60,ushuaia,-54.8,-68.3,15.81,51,75,4.63,AR,1706642467
61,papao,-17.75,-149.55,29.82,84,100,2.2,PF,1706642468
62,thompson,55.7435,-97.8558,3.09,81,75,1.54,CA,1706642468
63,hastings,50.8552,0.5729,8.22,36,100,2.22,GB,1706642405
64,sailana,23.4667,74.9167,17.74,48,100,1.74,IN,1706642469
65,sinabang,2.4803,96.3801,26.79,83,88,1.97,ID,1706642470
66,albany,42.6001,-73.9662,0.84,79,100,2.76,US,1706642191
67,haiku-pauwela,20.9219,-156.3051,24.54,84,40,6.69,US,1706642470
68,bilibino,68.0546,166.4372,-32.71,99,100,0.51,RU,1706642471
69,constantia,44.1833,28.65,-2.39,75,31,5.02,RO,1706642412
70,avarua,-21.2078,-159.775,28.03,74,40,2.57,CK,1706642471
71,niafunke,15.9322,-3.9906,25.24,11,2,4.71,ML,1706642472
72,mizan teferi,6.9833,35.5833,19.14,76,100,0.76,ET,1706642191
73,aasiaat,68.7098,-52.8699,-33.27,99,62,4.01,GL,1706642472
74,polyarnyy,69.1989,33.4478,3.36,77,96,13.16,RU,1706642473
75,san pedro pochutla,15.7333,-96.4667,30.84,42,0,3.81,MX,1706642473
76,iwanai,42.9744,140.5089,-2.17,76,95,1.9,JP,1706642473
77,burela de cabo,43.65,-7.4,14.46,82,86,2.57,ES,1706642474
78,mezhdurechenskiy,59.6,65.9333,-12.63,96,100,3.48,RU,1706642474
79,vila franca do campo,37.7167,-25.4333,18.27,99,31,2.58,PT,1706642474
80,susuman,62.7833,148.1667,-33.9,100,94,2.24,RU,1706642475
81,yangquan,37.8575,113.5633,0.79,74,94,1.52,CN,1706642475
82,imbituba,-28.24,-48.6703,24.92,71,41,3.49,BR,1706642475
83,st. john's,47.5649,-52.7093,-4.92,81,100,10.29,CA,1706642403
84,tadine,-21.55,167.8833,23.74,76,14,3.37,NC,1706642476
85,jiayuguan,39.8167,98.3,-6.86,46,92,2.64,CN,1706642477
86,arkhangel'sk,64.5401,40.5433,0.07,80,75,4.0,RU,1706642477
87,georgetown,5.4112,100.3354,27.75,73,20,3.09,MY,1706642478
88,okha,53.5739,142.9478,-20.55,96,48,5.49,RU,1706642478
89,puerto natales,-51.7236,-72.4875,17.25,67,100,9.26,CL,1706642479
90,mhamid,29.82,-5.72,17.03,26,5,4.29,MA,1706642479
91,inhambane,-23.865,35.3833,24.99,88,40,2.06,MZ,1706642480
92,swakopmund,-22.6833,14.5333,22.47,83,5,2.68,NA,1706642480
93,vorgashor,67.5833,63.95,-13.38,95,100,4.93,RU,1706642481
94,robertsport,6.7533,-11.3686,27.91,82,2,6.33,LR,1706642481
95,hasaki,35.7333,140.8333,2.22,62,97,1.71,JP,1706642481
96,east london,-33.0153,27.9116,22.92,82,100,3.75,ZA,1706642482
97,cururupu,-1.8283,-44.8683,29.17,69,84,2.38,BR,1706642482
98,nova sintra,14.8667,-24.7167,21.23,66,0,6.66,CV,1706642483
99,coquimbo,-29.9533,-71.3436,20.92,76,56,2.8,CL,1706641954
100,kapuskasing,49.4169,-82.4331,1.0,86,100,5.14,CA,1706642483
101,el granada,37.5027,-122.4694,19.92,76,0,4.12,US,1706642484
102,talnakh,69.4865,88.3972,-18.22,78,100,5.26,RU,1706642484
103,zabol,32.25,67.25,5.39,55,0,7.77,AF,1706642485
104,fale old settlement,-9.3852,-171.2468,29.43,71,36,2.49,TK,1706642485
105,urengoy,65.9667,78.3667,-20.12,96,75,6.01,RU,1706642486
106,carutapera,-1.195,-46.02,29.83,66,71,3.24,BR,1706642486
107,ribeira grande,38.5167,-28.7,17.22,82,20,5.66,PT,1706642486
108,tocopilla,-22.092,-70.1979,24.9,68,21,5.66,CL,1706641914
109,vilyuchinsk,52.9306,158.4028,-14.48,79,95,3.59,RU,1706642487
110,ilhabela,-23.7781,-45.3581,27.55,73,58,0.98,BR,1706642488
111,pyoksong-up,38.0475,125.5567,0.42,60,83,0.75,KP,1706642488
112,lihue,21.9789,-159.3672,23.58,82,40,0.0,US,1706642432
113,kimbe,-5.5502,150.1429,24.71,92,88,0.65,PG,1706642489
114,coahuayana de hidalgo,18.7,-103.6583,30.43,52,100,3.25,MX,1706642489
115,badger,64.8,-147.5333,-27.07,70,75,0.0,US,1706642490
116,kourou,5.1552,-52.6478,30.03,75,81,4.32,GF,1706642490
117,mula,38.0409,-1.4901,12.29,88,100,2.22,ES,1706642490
118,nemuro,43.3236,145.575,-2.26,66,99,5.9,JP,1706642491
119,port-vila,-17.7338,168.3219,20.78,100,20,1.03,VU,1706642491
120,dali,25.7,100.1833,4.15,79,0,2.65,CN,1706642491
121,shakawe,-18.3667,21.85,20.93,81,54,2.88,BW,1706642492
122,kalmunai,7.4167,81.8167,25.02,89,21,2.35,LK,1706642492
123,muncie,40.1934,-85.3864,1.51,93,100,3.09,US,1706642352
124,ust-nera,64.5667,143.2,-36.33,100,100,1.13,RU,1706642492
125,bredasdorp,-34.5322,20.0403,20.36,77,100,4.96,ZA,1706642493
126,vredendal,-31.6683,18.5012,21.33,63,12,4.96,ZA,1706642493
127,shirvan,39.9509,48.8994,2.99,85,98,0.99,AZ,1706642493
128,zonguldak,41.25,31.8333,-1.98,91,8,0.77,TR,1706642494
129,bubaque,11.2833,-15.8333,25.99,65,100,5.46,GW,1706642494
130,petropavlovsk-kamchatsky,53.0452,158.6483,-15.3,94,75,4.0,RU,1706642494
131,sarkand,45.41,79.9186,-3.66,85,99,2.14,KZ,1706642495
132,udachny,66.4167,112.4,-29.62,100,97,1.17,RU,1706642495
133,punta arenas,-53.15,-70.9167,16.01,82,100,5.14,CL,1706642429
134,kailua-kona,19.6406,-155.9956,25.15,92,100,6.17,US,1706642496
135,fisterra,42.9049,-9.2629,13.75,75,95,2.28,ES,1706642496
136,sausset-les-pins,43.3314,5.1043,10.13,87,0,2.06,FR,1706642497
137,blackmans bay,-43.0167,147.3167,15.07,74,100,2.52,AU,1706642497
138,tsiombe,-25.3,45.4833,23.05,77,100,7.62,MG,1706642497
139,kamakhyanagar,20.9333,85.55,18.5,84,84,0.85,IN,1706642498
140,nizhnesortymskiy,62.4397,71.7603,-19.28,98,98,5.78,RU,1706642498
141,bereznik,62.8551,42.7072,-2.4,89,30,3.0,RU,1706642498
142,salekhard,66.53,66.6019,-15.17,95,100,4.27,RU,1706642499
143,ancud,-41.8697,-73.8203,17.49,72,6,4.05,CL,1706642213
144,kajaani,64.2273,27.7285,0.03,69,0,3.6,FI,1706642500
145,luwuk,-0.9516,122.7875,25.93,80,74,1.44,ID,1706642500
146,hami,42.8,93.45,-4.76,54,100,1.11,CN,1706642500
147,kodiak,57.79,-152.4072,-17.27,66,0,3.09,US,1706642501
148,tolanaro,-25.0319,46.9987,25.04,78,40,6.17,MG,1706642501
149,san luis,-33.295,-66.3356,37.0,20,64,4.55,AR,1706642502
150,puerto ayora,-0.7393,-90.3518,30.98,75,67,5.43,EC,1706642502
151,xiaoweizhai,26.1903,107.5125,9.3,99,100,1.19,CN,1706642502
152,namtsy,62.7161,129.6658,-33.96,94,100,0.39,RU,1706642503
153,lebu,-37.6167,-73.65,18.55,63,0,7.0,CL,1706642214
154,akureyri,65.6835,-18.0878,-2.04,80,75,2.06,IS,1706642503
155,pathein,16.7833,94.7333,19.29,63,0,2.19,MM,1706642504
156,aban,56.67,96.06,-29.85,99,10,1.96,RU,1706642504
157,mount gambier,-37.8333,140.7667,11.12,90,14,2.01,AU,1706642505
158,port alfred,-33.5906,26.891,22.32,89,100,0.89,ZA,1706642505
159,muynoq,43.7683,59.0214,-3.71,79,100,4.91,UZ,1706642505
160,leninskoye,41.7589,69.3864,-0.04,96,100,4.46,KZ,1706642506
161,la'ie,21.6477,-157.9253,23.36,96,71,1.79,US,1706642506
162,sopela,43.3789,-2.9831,14.26,79,0,0.0,ES,1706642506
163,jamestown,42.097,-79.2353,3.77,90,100,5.66,US,1706642339
164,giubiasco,46.1725,9.0079,9.9,71,20,0.0,CH,1706642507
165,nsanje,-16.92,35.262,24.58,69,3,0.97,MW,1706642508
166,port saint john's,-31.6229,29.5448,23.55,90,99,1.21,ZA,1706642508
167,porto novo,6.4965,2.6036,28.9,71,6,3.21,BJ,1706642508
168,sirte,31.2089,16.5887,14.16,58,12,9.65,LY,1706642509
169,chetwayi,10.5333,76.05,25.11,79,12,2.2,IN,1706642509
170,castillos,-34.1667,-53.8333,26.3,43,3,4.8,UY,1706642509
171,uturoa,-16.7333,-151.4333,28.59,76,100,2.96,PF,1706642510
172,anadyr,64.75,177.4833,-30.56,74,0,2.0,RU,1706642510
173,santa cruz,-17.8,-63.1667,35.03,49,20,7.2,BO,1706642359
174,tazacorte,28.629,-17.9293,21.19,42,0,2.68,ES,1706642511
175,pul-e khumri,35.9446,68.7151,3.02,99,100,1.12,AF,1706642512
176,dunedin,-45.8742,170.5036,14.33,87,88,3.58,NZ,1706642512
177,rongelap,11.1635,166.8941,26.1,73,100,9.49,MH,1706642474
178,salinas,36.6777,-121.6555,20.55,69,0,3.6,US,1706642513
179,port lincoln,-34.7333,135.8667,15.49,71,3,4.75,AU,1706642513
180,dogondoutchi,13.6393,4.0287,24.98,16,7,4.78,NE,1706642513
181,segezha,63.7415,34.3222,-0.84,84,51,6.2,RU,1706642514
182,lorengau,-2.0226,147.2712,27.69,81,100,4.28,PG,1706642514
183,lompoc,34.6391,-120.4579,21.55,61,0,1.79,US,1706642514
184,mil'kovo,55.6078,37.7956,0.33,94,100,1.5,RU,1706642515
185,umm kaddadah,13.6017,26.6876,17.43,20,42,5.29,SD,1706642515
186,mayisad,19.1667,-72.1333,27.71,51,34,4.64,HT,1706642298
187,kingston,17.997,-76.7936,30.09,68,20,5.14,JM,1706642267
188,mount isa,-20.7333,139.5,25.87,89,100,6.69,AU,1706642516
189,am timan,11.0297,20.2827,28.36,15,0,2.97,TD,1706642517
190,nhamunda,-2.1861,-56.7131,30.42,75,50,1.55,BR,1706642517
191,new norfolk,-42.7826,147.0587,15.72,81,100,1.37,AU,1706642517
192,worthington,40.0931,-83.018,4.21,83,75,5.14,US,1706642518
193,rabaul,-4.1967,152.1721,26.73,76,100,1.81,PG,1706642518
194,kristiansund,63.1115,7.732,2.36,44,0,1.03,NO,1706642518
195,pandan,14.0453,124.1694,24.94,83,94,6.6,PH,1706642519
196,harstad,68.799,16.5293,6.66,92,100,34.42,NO,1706642519
197,penzance,50.1186,-5.5371,5.38,60,100,1.02,GB,1706642519
198,san antonio de pale,-1.4014,5.6325,27.84,78,85,1.95,GQ,1706642520
199,kantunilkin,21.0917,-87.45,24.06,51,63,2.22,MX,1706642520
200,srandakan,-7.9386,110.2506,25.37,85,100,1.15,ID,1706642521
201,nova vicosa,-17.8919,-39.3719,29.35,70,99,6.7,BR,1706642521
202,prado,-17.3411,-39.2208,28.12,75,66,6.55,BR,1706642522
203,san juan colorado,16.4586,-97.9536,32.13,28,62,2.5,MX,1706642522
204,tiflet,33.8947,-6.3065,11.33,59,0,2.78,MA,1706642523
205,katsuura,35.1333,140.3,9.75,68,18,3.18,JP,1706642523
206,cooper's town,26.8667,-77.5167,19.7,54,96,2.27,BS,1706642524
207,remire-montjoly,4.9167,-52.2667,30.02,74,75,6.69,GF,1706642524
208,nanchang,28.6833,115.8833,11.78,94,100,0.59,CN,1706642525
209,sault ste. marie,46.5168,-84.3333,1.31,100,100,3.09,CA,1706642347
210,vernon,50.2581,-119.2691,9.05,87,100,1.03,CA,1706642525
211,cabo san lucas,22.8909,-109.9124,30.17,45,75,6.17,MX,1706642512
212,isangel,-19.55,169.2667,21.06,88,100,2.57,VU,1706642527
213,kibara,-2.15,33.45,23.3,72,97,3.96,TZ,1706642527
214,caleta de carquin,-11.0925,-77.6267,26.31,73,81,5.84,PE,1706642528
215,mount pearl,47.5166,-52.7813,-5.38,81,100,10.29,CA,1706642528
216,sinop,41.7711,34.8709,-1.76,94,86,0.88,TR,1706642528
217,hadibu,12.65,54.0333,24.92,76,92,4.43,YE,1706642529
218,bamboo flat,11.7,92.7167,26.05,89,20,0.0,IN,1706642529
219,korla,41.7597,86.1469,-4.5,71,94,2.84,CN,1706642529
220,okhotsk,59.3833,143.3,-20.2,78,100,3.5,RU,1706642530
221,minas de marcona,-15.2119,-75.1103,24.28,58,87,7.32,PE,1706642530
222,pitimbu,-7.4706,-34.8086,31.33,64,0,5.21,BR,1706642531
223,nushki,29.5542,66.0215,13.03,39,100,1.43,PK,1706642531
224,copiapo,-27.3667,-70.3333,20.83,40,0,4.73,CL,1706642335
225,pisco,-13.7,-76.2167,27.79,65,0,3.6,PE,1706642532
226,muntok,-2.0667,105.1833,26.17,84,100,4.16,ID,1706642532
227,woolgoolga,-30.1106,153.2007,21.69,76,85,0.62,AU,1706642533
228,la passe,45.5549,-0.8967,11.13,87,47,2.01,FR,1706642533
229,callao,-12.0667,-77.15,28.16,65,20,5.14,PE,1706642534
230,qui nhon,13.7667,109.2333,20.82,93,20,2.39,VN,1706642534
231,weno,7.4515,151.8468,26.97,74,100,4.12,FM,1706642535
232,carovigno,40.708,17.655,9.1,63,0,3.72,IT,1706642535
233,sandnessjoen,66.0217,12.6316,4.12,65,75,13.89,NO,1706642535
234,port douglas,-16.4833,145.4667,27.62,85,100,2.58,AU,1706642436
235,ciudad melchor muzquiz,27.8833,-101.5167,18.54,34,67,2.51,MX,1706642537
236,tazovsky,67.4667,78.7,-19.34,93,99,7.25,RU,1706642537
237,iquitos,-3.7481,-73.2472,32.02,79,75,2.57,PE,1706642477
238,znamenskoye,57.1281,73.8282,-14.34,97,100,2.19,RU,1706642538
239,charters towers,-20.1,146.2667,28.63,70,100,2.4,AU,1706642539
240,rafsanjan,30.4067,55.9939,8.36,36,90,3.48,IR,1706642541
241,iskateley,67.6803,53.1512,-2.77,93,97,6.71,RU,1706642542
242,moree,-29.4667,149.85,23.39,83,1,2.4,AU,1706642543
243,vilhena,-12.7406,-60.1458,25.12,83,40,4.12,BR,1706642452
244,bordighera,43.7806,7.6645,11.42,76,100,0.85,IT,1706642545
245,colonia,50.9333,6.95,10.54,69,75,5.14,DE,1706642546
246,jerada,34.31,-2.16,12.04,43,34,2.2,MA,1706642547
247,carrizo springs,28.5219,-99.8606,21.34,32,0,2.06,US,1706642548
248,narasannapeta,18.4167,84.05,20.48,74,52,0.13,IN,1706642548
249,college,64.8569,-147.8028,-27.03,70,75,0.0,US,1706642549
250,nantucket,41.2835,-70.0995,0.08,64,75,8.75,US,1706642549
251,yuzhno-kurilsk,44.0306,145.8556,-2.01,71,70,5.61,RU,1706642549
252,humaita,-7.5061,-63.0208,30.65,65,100,1.15,BR,1706642549
253,cockermouth,54.6621,-3.3609,4.78,94,7,2.68,GB,1706642550
254,datong,40.0936,113.2914,-10.51,92,26,2.16,CN,1706642550
255,cambria,35.5641,-121.0808,20.06,81,40,2.24,US,1706642550
256,jos,9.9167,8.9,20.82,26,32,3.2,NG,1706642551
257,kayangel,8.0823,134.7173,27.11,82,74,10.99,PW,1706642551
258,antsiranana,-12.2787,49.2917,25.21,87,31,2.44,MG,1706642551
259,raton,36.9034,-104.4391,11.34,32,0,3.6,US,1706642552
260,mpika,-11.8343,31.4529,17.12,92,46,0.85,ZM,1706642552
261,daru,-9.0763,143.2092,25.75,90,100,3.39,PG,1706642552
262,nadi,-17.8,177.4167,26.0,89,75,1.03,FJ,1706642553
263,porangatu,-13.4408,-49.1486,27.91,75,100,0.89,BR,1706642553
264,igarka,67.4667,86.5833,-22.0,83,78,7.44,RU,1706642553
265,karibib,-21.9333,15.8333,27.85,33,74,5.32,NA,1706642554
266,al hawatah,13.4167,34.6333,26.29,14,48,6.06,SD,1706642554
267,prince rupert,54.3161,-130.3201,8.83,87,100,9.26,CA,1706642412
268,saint-francois,46.4154,3.9054,8.69,87,0,1.03,FR,1706642555
269,belmonte,-15.8631,-38.8828,28.77,70,43,5.47,BR,1706642555
270,dyurtyuli,55.4911,54.8688,-4.78,96,100,4.36,RU,1706642555
271,dzhalagash,45.0833,64.6667,-7.06,93,85,5.08,KZ,1706642556
272,howard springs,-12.497,131.047,25.95,87,74,3.06,AU,1706642556
273,dudinka,69.4058,86.1778,-16.85,85,90,9.83,RU,1706642556
274,bezhetsk,57.7851,36.6965,-10.41,100,100,1.72,RU,1706642557
275,kaspiyskiy,45.3929,47.3707,-2.8,76,97,6.38,RU,1706642557
276,blackfoot,43.1905,-112.345,7.09,77,5,2.6,US,1706642461
277,aras-asan,8.8908,126.3033,25.65,88,100,4.18,PH,1706642557
278,newman,37.3138,-121.0208,18.49,83,83,1.79,US,1706642558
279,cill airne,52.05,-9.5167,5.47,79,100,2.41,IE,1706642558
280,langsa,4.4683,97.9683,23.54,95,98,1.02,ID,1706642558
281,colesberg,-30.72,25.0972,24.09,51,100,9.72,ZA,1706642559
282,mili,6.0815,171.735,26.16,85,100,1.54,MH,1706642559
283,invercargill,-46.4,168.35,9.62,87,69,1.26,NZ,1706642559
284,vokhtoga,58.8147,41.0461,-6.62,95,10,2.6,RU,1706642560
285,sao joao da barra,-21.6403,-41.0511,30.05,85,60,4.11,BR,1706642560
286,kaohsiung,22.6163,120.3133,20.58,85,40,0.51,TW,1706642561
287,zhangye,38.9342,100.4517,-3.76,35,100,2.14,CN,1706642561
288,carora,10.1755,-70.0827,35.0,26,40,2.31,VE,1706642561
289,puerto baquerizo moreno,-0.9,-89.6,26.55,89,75,4.12,EC,1706642543
290,queenstown,-31.8976,26.8753,20.34,86,100,0.38,ZA,1706642562
291,mutuali,-14.8706,37.0044,21.95,80,56,1.35,MZ,1706642562
292,naze,28.3667,129.4833,18.51,78,100,8.74,JP,1706642563
293,klyuchi,52.2667,79.1667,-17.92,94,69,2.96,RU,1706642563
294,howrah,22.5892,88.3103,21.0,83,75,2.06,IN,1706642563
295,ra's bayrut,33.9,35.4833,9.5,70,100,6.18,LB,1706642564
296,amahai,-3.3333,128.9167,26.52,81,100,1.51,ID,1706642564
297,mamuju,-2.6748,118.8885,25.91,88,100,2.05,ID,1706642565
298,waingapu,-9.6567,120.2641,25.21,83,10,2.28,ID,1706642565
299,concordia,-31.393,-58.0209,34.22,32,0,2.68,AR,1706642565
300,isabela,6.7085,121.9711,25.72,86,93,1.88,PH,1706642566
301,road town,18.4167,-64.6167,29.02,61,20,3.09,VG,1706642266
302,rovinj,45.08,13.64,9.9,61,21,1.43,HR,1706642566
303,olonkinbyen,70.9221,-8.7187,-4.43,90,100,7.74,SJ,1706642567
304,arawa,-6.2132,155.5367,25.44,91,100,0.95,PG,1706642567
305,taperoa,-7.2075,-36.8267,34.48,24,3,4.01,BR,1706642568
306,biga,40.2281,27.2422,6.7,75,100,10.48,TR,1706642568
307,douentza,14.9951,-2.9517,24.9,13,0,3.42,ML,1706642569
308,arraial do cabo,-22.9661,-42.0278,27.98,78,75,5.14,BR,1706642569
309,el naranjo,21.4667,-98.6,21.29,61,100,1.87,MX,1706642569
310,puerto ayacucho,5.6639,-67.6236,34.35,42,100,1.96,VE,1706642570
311,isiro,2.7739,27.616,22.34,42,100,1.2,CD,1706642570
312,suponevo,53.2049,34.296,-5.51,96,100,1.72,RU,1706642571
313,smara,26.7384,-11.6719,23.39,10,3,4.43,EH,1706642571
314,frontera,26.9333,-101.45,21.86,38,40,1.34,MX,1706642572
315,statesboro,32.4488,-81.7832,16.74,29,0,4.12,US,1706642572
316,rabo de peixe,37.8,-25.5833,17.77,99,20,4.12,PT,1706642572
317,campos sales,-7.0744,-40.3761,32.61,34,83,1.46,BR,1706642573
318,ranau,5.9538,116.6641,20.5,97,83,0.06,MY,1706642573
319,codrington,-38.2667,141.9667,13.51,79,0,3.63,AU,1706642573
320,la ronge,55.1001,-105.2842,3.14,70,75,1.54,CA,1706642574
321,conde,-7.2597,-34.9075,30.7,62,40,5.66,BR,1706642574
322,sechelt,49.4664,-123.7694,13.97,92,100,0.57,CA,1706642574
323,taksimo,56.3444,114.8794,-32.13,90,39,0.89,RU,1706642574
324,shitanjing,39.2342,106.3439,-4.36,36,100,1.27,CN,1706642575
325,tutoia,-2.7619,-42.2744,29.52,67,11,4.78,BR,1706642552
326,pontianak,-0.0333,109.3333,22.99,100,100,0.51,ID,1706642575
327,adrasmon,40.6472,69.9856,-5.75,78,100,2.99,TJ,1706642576
328,robstown,27.7903,-97.6689,21.94,45,0,3.09,US,1706642428
329,westport,41.1415,-73.3579,3.27,66,100,2.57,US,1706642411
330,page,36.9147,-111.4558,9.5,59,0,2.06,US,1706642577
331,bandrele,-12.9067,45.1914,25.86,89,0,1.54,YT,1706642577
332,zyryanskoye,56.8306,86.6258,-23.32,99,98,1.64,RU,1706642577
333,mountain home,43.133,-115.6912,11.75,62,0,7.72,US,1706642578
334,ciudad bolivar,8.1222,-63.5497,36.16,33,100,3.29,VE,1706642578
335,kijang,35.2442,129.2139,4.85,78,100,1.82,KR,1706642578
336,nelson bay,-32.7167,152.15,23.33,97,5,3.58,AU,1706642578
337,lazaro cardenas,17.9583,-102.2,29.0,58,100,3.11,MX,1706642579
338,labytnangi,66.6572,66.4183,-15.21,96,100,2.99,RU,1706642579
339,vila velha,-20.3297,-40.2925,30.97,82,20,5.14,BR,1706642579
340,markova,48.6758,24.4138,-1.62,79,39,2.6,UA,1706642580
341,palmer,42.1584,-72.3287,2.51,69,100,0.89,US,1706642580
342,carnarvon,-24.8667,113.6333,25.91,70,47,7.29,AU,1706642581
343,champerico,14.3,-91.9167,36.3,64,1,5.05,GT,1706642581
344,ugoofaaru,5.6667,73.0,27.94,72,100,4.64,MV,1706642581
345,nagyatad,46.2296,17.3579,2.1,73,3,2.9,HU,1706642582
346,guercif,34.2257,-3.3536,14.06,72,0,4.64,MA,1706642582
347,nuuk,64.1835,-51.7216,-12.66,56,75,10.8,GL,1706642582
348,pasing,48.1478,11.4607,6.12,75,100,2.57,DE,1706642583
349,suntar,62.1444,117.6319,-33.09,97,84,1.88,RU,1706642583
350,sepolno krajenskie,53.452,17.5317,2.71,85,100,4.07,PL,1706642583
351,talara,-4.5772,-81.2719,32.42,55,0,6.17,PE,1706642584
352,saudarkrokur,65.7461,-19.6394,-3.22,91,100,4.46,IS,1706642584
353,alice springs,-23.7,133.8833,29.56,21,98,4.12,AU,1706642378
354,flying fish cove,-10.4217,105.6791,24.82,100,97,2.06,CX,1706642585
355,makarska,43.2969,17.0178,5.78,57,0,2.1,HR,1706642585
356,sengkang,-4.1279,120.0297,24.47,90,88,1.28,ID,1706642585
357,buala,-8.145,159.5921,24.88,91,100,5.11,SB,1706642585
358,ciudad lazaro cardenas,17.9583,-102.2,29.0,58,100,3.11,MX,1706642515
359,plettenberg bay,-34.0527,23.3716,20.14,88,100,2.31,ZA,1706642586
360,ust'-ilimsk,58.0006,102.6619,-34.2,100,8,1.34,RU,1706642586
361,taoudenni,22.6783,-3.9836,22.67,11,0,5.08,ML,1706642587
362,illizi,26.4833,8.4667,13.89,34,0,6.44,DZ,1706642587
363,quiberon,47.4841,-3.1196,7.89,84,100,0.93,FR,1706642587
364,viedma,-40.8135,-62.9967,34.7,25,64,0.73,AR,1706642425
365,pyetrykaw,52.1289,28.4921,-2.1,84,99,2.85,BY,1706642588
366,mao,39.8885,4.2658,12.31,82,40,2.06,ES,1706642588
367,ola,59.5833,151.2833,-27.43,88,34,3.69,RU,1706642589
368,nagqu,31.5,92.0,-11.97,39,100,0.17,CN,1706642589
369,huarmey,-10.0681,-78.1522,26.86,72,96,6.02,PE,1706642589
370,mutsu,41.2894,141.2169,0.34,86,98,1.63,JP,1706642589
371,letlhakeng,-24.0944,25.0298,26.27,46,100,1.99,BW,1706642590
372,san julian,21.0167,-102.1667,20.95,22,100,3.01,MX,1706642590
373,puerto san jose,13.9256,-90.8244,31.46,39,99,4.87,GT,1706642590
374,mandalgovi,45.7625,106.2708,-25.14,84,8,1.1,MN,1706642591
375,dryden,49.7833,-92.7503,-1.84,93,100,5.14,CA,1706642577
376,durban,-29.8579,31.0292,24.51,90,0,3.84,ZA,1706642558
377,kamenka,51.3223,42.7678,-1.82,96,100,3.78,RU,1706642591
378,balqash,46.8481,74.995,-11.01,95,100,1.88,KZ,1706642592
379,iida,35.5197,137.8207,1.03,72,88,0.45,JP,1706642592
380,padang,-0.9492,100.3543,27.03,83,100,2.03,ID,1706642592
381,geraldton,-28.7667,114.6,22.23,73,0,4.63,AU,1706642593
382,lerwick,60.1545,-1.1494,8.0,83,100,13.43,GB,1706642593
383,noosa heads,-26.3833,153.15,24.5,86,65,8.33,AU,1706642508
384,duyun,26.2667,107.5167,8.86,99,100,1.12,CN,1706642594
385,bulungu,-4.55,18.6,22.73,92,100,0.58,CD,1706642594
386,prachuap khiri khan,12.2167,99.75,20.65,89,100,1.2,TH,1706642531
387,ketchikan,55.3422,-131.6461,9.26,87,100,6.17,US,1706642594
388,acarau,-2.8856,-40.12,30.49,63,1,7.65,BR,1706642595
389,keelung,25.1283,121.7419,21.11,94,20,1.16,TW,1706642595
390,santanyi,39.3546,3.1291,13.71,80,100,4.01,ES,1706642595
391,tonosho,34.4833,134.1833,6.23,66,75,1.22,JP,1706642596
392,puerto deseado,-47.7503,-65.8938,23.53,38,7,9.19,AR,1706642487
393,katsuren-haebaru,26.3369,127.8719,21.21,75,100,2.57,JP,1706642596
394,aso,32.9551,131.0967,4.65,91,100,1.71,JP,1706642597
395,laizhou,37.1717,119.9214,3.06,95,89,1.86,CN,1706642597
396,male,4.1748,73.5089,27.97,89,75,7.2,MV,1706642597
397,meadow lake,34.8014,-106.5436,14.43,38,88,1.44,US,1706642597
398,oruro,-17.9833,-67.15,18.27,45,40,5.66,BO,1706642598
399,atafu village,-8.5421,-172.5159,29.26,69,95,2.26,TK,1706642598
400,peace river,56.2501,-117.286,7.17,61,75,11.83,CA,1706642419
401,tomatlan,19.9333,-105.25,30.43,50,100,4.09,MX,1706642599
402,jalai nur,49.45,117.7,-32.59,97,19,2.15,CN,1706642599
403,tvoroyri,61.5556,-6.8111,8.3,87,100,22.1,FO,1706642599
404,tarakan,3.3,117.6333,26.38,83,22,4.21,ID,1706642589
405,altay,47.8667,88.1167,-12.15,71,100,2.06,CN,1706642600
406,port augusta,-32.5,137.7667,16.68,63,0,8.71,AU,1706642386
407,colonel hill,22.7667,-74.2167,22.91,57,88,4.59,BS,1706642601
408,nizhneudinsk,54.9076,99.0276,-29.94,99,9,1.54,RU,1706642601
409,broome,42.2506,-75.833,-0.17,91,100,4.12,US,1706642601
410,suva,-18.1416,178.4415,25.71,100,75,1.54,FJ,1706642602
411,turiacu,-1.6633,-45.3717,28.63,71,96,2.4,BR,1706642602
412,kamaishi,39.2667,141.8833,2.29,75,15,1.99,JP,1706642602
413,namibe,-15.1961,12.1522,24.27,79,73,2.23,AO,1706642603
414,kaka,37.3482,59.6143,3.77,66,77,1.92,TM,1706642603
415,potosi,-19.5836,-65.7531,13.48,67,75,1.54,BO,1706642603
416,urzhar,47.093,81.6294,-6.45,97,100,0.78,KZ,1706642603
417,bay roberts,47.5999,-53.2648,-4.72,77,74,3.13,CA,1706642604
418,nouadhibou,20.931,-17.0347,23.99,43,0,5.14,MR,1706642568
419,ad dilam,23.9915,47.1627,21.23,51,100,2.87,SA,1706642605
420,changnyeong,35.5415,128.4951,3.77,80,100,1.03,KR,1706642605
421,knyaze-volkonskoye,48.4642,135.4567,-23.81,99,93,2.06,RU,1706642605
422,argo,37.6333,22.7333,3.51,93,91,2.53,GR,1706642606
423,oranjemund,-28.55,16.4333,18.91,93,3,4.02,NA,1706642606
424,vega de alatorre,20.0333,-96.6333,20.79,72,100,2.28,MX,1706642606
425,bardai,11.65,7.2333,22.41,20,17,4.3,NG,1706642607
426,gadzhiyevo,69.2551,33.3362,3.14,77,88,13.93,RU,1706642607
427,al mijlad,11.0333,27.7333,22.5,15,100,5.7,SD,1706642607
428,macia,-25.0269,33.0989,23.49,82,4,2.98,MZ,1706642608
429,selfoss,63.9331,-20.9971,-3.31,72,100,10.22,IS,1706642608
430,margate,51.3813,1.3862,7.95,89,100,1.34,GB,1706642438
431,manokwari,-0.8667,134.0833,26.65,80,100,0.47,ID,1706642609
432,floro,61.5996,5.0328,2.98,75,40,5.66,NO,1706642518
433,vilyuysk,63.7553,121.6247,-26.63,98,100,1.57,RU,1706642591
434,regina,50.4501,-104.6178,9.06,73,20,4.12,CA,1706642217
435,magong,23.5654,119.5863,19.41,89,28,5.17,TW,1706642610
436,bukama,-9.2,25.85,21.75,98,100,1.67,CD,1706642611
437,ettaiyapuram,9.1441,77.9907,25.57,80,16,2.69,IN,1706642611
438,lucea,18.451,-78.1736,24.92,70,96,6.05,JM,1706642612
439,chibougamau,49.9168,-74.3659,-6.21,86,100,5.66,CA,1706642554
440,motueka,-41.1333,173.0167,15.05,67,0,1.68,NZ,1706642612
441,akobo,7.4344,3.9497,29.91,26,6,0.63,NG,1706642612
442,poronaysk,49.2167,143.1167,-22.43,98,71,1.4,RU,1706642613
443,keflavik,64.0049,-22.5624,-1.76,93,75,13.38,IS,1706642613
444,san patricio,28.017,-97.5169,20.65,44,100,0.9,US,1706642613
445,wanning,18.8003,110.3967,20.58,90,100,0.61,CN,1706642614
446,nova xavantina,-14.6667,-52.35,33.85,42,12,1.82,BR,1706642614
447,sabang,5.8933,95.3214,27.83,78,14,6.75,ID,1706642614
448,holualoa,19.6228,-155.9522,22.65,92,100,6.17,US,1706642615
449,alo,7.4178,6.7371,31.72,19,78,1.43,NG,1706642615
450,solaro,44.8799,9.1732,6.45,78,95,0.73,IT,1706642615
451,laguna,38.421,-121.4238,21.41,73,0,2.57,US,1706642616
452,mossel bay,-34.1831,22.146,20.96,87,100,6.17,ZA,1706642586
453,xilin hot,43.9667,116.0333,-30.04,100,33,0.3,CN,1706642616
454,choma,-16.8065,26.9531,19.37,81,0,1.94,ZM,1706642617
455,kismayo,-0.3582,42.5454,27.0,83,100,6.75,SO,1706642554
456,monroe,43.1501,-77.6831,2.47,87,100,3.09,US,1706642562
457,severo-yeniseyskiy,60.3725,93.0408,-29.12,94,21,1.79,RU,1706642618
458,vallenar,-28.5708,-70.7581,31.19,36,0,4.88,CL,1706642618
459,puerto santa,-8.9906,-78.6456,26.33,74,37,5.68,PE,1706642618
460,bonthe,7.5264,-12.505,27.47,75,29,4.79,SL,1706642618
461,kone,-21.0595,164.8658,25.12,82,91,0.9,NC,1706642619
462,santa ana,33.7456,-117.8678,26.06,37,20,2.06,US,1706642619
463,xinyuan,37.3,99.0,-9.55,39,100,0.93,CN,1706642619
464,caucete,-31.6518,-68.2811,40.5,15,5,2.61,AR,1706642620
465,palangkaraya,-2.2,113.8333,23.45,98,100,0.83,ID,1706642620
466,ca mau,9.1769,105.15,23.63,88,83,2.5,VN,1706642620
467,khandyga,62.6667,135.6,-42.24,99,99,1.06,RU,1706642621
468,emerald,-23.5333,148.1667,24.63,95,100,2.43,AU,1706642621
469,freetown,8.484,-13.2299,28.84,70,5,5.66,SL,1706642358
470,jincheng,35.5022,112.8328,-0.03,85,0,1.93,CN,1706642508
471,funafuti,-8.5243,179.1942,30.0,79,75,6.69,TV,1706642622
472,puerto lempira,15.2667,-83.7667,28.08,74,75,6.17,HN,1706642622
473,san andres,12.5847,-81.7006,30.01,62,20,5.14,CO,1706642622
474,martapura,-3.4167,114.85,26.05,100,100,1.54,ID,1706642623
475,ocean shores,46.9737,-124.1563,13.86,93,100,6.69,US,1706642623
476,priyutnoye,46.1011,43.5072,-2.96,90,90,4.62,RU,1706642623
477,hungund,16.0667,76.05,22.94,38,13,3.32,IN,1706642623
478,bandarbeyla,9.4942,50.8122,25.14,66,89,5.4,SO,1706642624
479,pierre,44.3683,-100.351,4.6,79,0,3.6,US,1706642526
480,karkira,36.9292,6.5856,12.0,85,81,1.71,DZ,1706642624
481,ponta delgada,37.7333,-25.6667,18.44,82,20,4.12,PT,1706642625
482,tumaco,1.7986,-78.8156,28.22,79,90,3.79,CO,1706642625
483,llanes,43.4198,-4.7549,14.33,82,100,2.15,ES,1706642625
484,santa ines,-3.6667,-45.38,30.97,63,97,0.45,BR,1706642625
485,trincomalee,8.5711,81.2335,26.28,83,16,3.58,LK,1706642626
486,labrador city,52.9463,-66.9114,-12.05,37,0,5.66,CA,1706642626
487,san nicolo,46.463,10.41,3.84,73,99,0.43,IT,1706642626
488,quellon,-43.1167,-73.6167,18.78,59,80,3.13,CL,1706642366
489,nieuw amsterdam,5.8833,-55.0833,31.09,70,40,4.12,SR,1706642627
490,qarazhal,48.0078,70.7903,-6.31,94,100,4.33,KZ,1706642627
491,ajdabiya,30.7554,20.2263,11.75,67,15,5.76,LY,1706642627
492,gnarrenburg,53.3833,9.0,9.38,87,100,7.51,DE,1706642568
493,cidade velha,14.9167,-23.6167,25.26,57,0,7.72,CV,1706642628
494,ta`u,-14.2336,-169.5144,28.77,77,91,3.01,AS,1706642628
495,giyani,-23.3025,30.7187,25.59,40,0,3.34,ZA,1706642628
496,brisas de zicatela,15.8369,-97.0419,29.29,65,0,3.6,MX,1706642629
497,changji,44.0167,87.3167,-14.56,78,40,1.0,CN,1706642629
498,happy valley-goose bay,53.3168,-60.3315,-12.83,36,20,8.23,CA,1706642629
499,verkhnevilyuysk,63.4453,120.3167,-27.78,95,100,1.96,RU,1706642629
500,roslavl',53.9528,32.8639,-3.6,95,100,1.87,RU,1706642630
501,beyneu,45.3167,55.2,-4.96,76,100,6.26,KZ,1706642630
502,hassi messaoud,31.6804,6.0729,14.92,41,0,2.57,DZ,1706642630
503,swift current,50.2834,-107.8014,14.45,47,0,10.29,CA,1706642631
504,praia da vitoria,38.7333,-27.0667,16.53,88,40,4.91,PT,1706642510
505,reggane,26.7158,0.1714,19.88,22,0,5.28,DZ,1706642631
506,saint-pierre,-21.3393,55.4781,25.82,89,0,0.0,RE,1706642631
507,saipan,15.1355,145.701,25.39,61,75,6.69,MP,1706642077
508,kutum,14.2,24.6667,16.96,19,0,4.22,SD,1706642632
509,alofi,-19.0595,-169.9187,27.8,87,96,6.95,NU,1706642632
510,angra do heroismo,38.65,-27.2167,16.73,83,40,1.79,PT,1706642633
511,deogarh,21.5333,84.7333,16.7,49,51,0.21,IN,1706642633
512,yoichi,43.2039,140.7703,-2.22,75,66,2.6,JP,1706642633
513,morehead city,34.7229,-76.726,12.23,65,0,4.47,US,1706642633
514,hailin,44.5833,129.4167,-13.26,97,100,1.13,CN,1706642634
515,mahina,-17.5065,-149.489,29.87,74,75,3.6,PF,1706642574
516,bandar lampung,-5.4254,105.258,23.73,95,100,1.76,ID,1706642634
517,aykhal,66.0,111.5,-25.41,100,99,1.37,RU,1706642634
518,bayanhongor,46.7167,100.1167,-25.66,78,1,1.63,MN,1706642635
519,tura,25.5198,90.2201,13.47,48,0,1.71,IN,1706642635
520,mpongwe,-13.5091,28.155,20.97,78,93,2.0,ZM,1706642635
521,pambujan,12.5642,124.9276,24.78,88,97,5.5,PH,1706642636
522,peniche,39.3558,-9.3811,16.73,85,100,4.02,PT,1706642528
523,prince george,53.9166,-122.753,8.69,62,0,5.66,CA,1706642636
524,el nido,11.1858,119.3956,25.25,77,23,1.81,PH,1706642636
525,djambala,-2.5447,14.7533,24.56,67,99,1.7,CG,1706642637
526,crane,31.3974,-102.3501,17.29,31,31,2.37,US,1706642379
527,shalya,57.2471,58.7298,-7.88,95,100,3.39,RU,1706642637
528,ibiza,38.9088,1.433,14.56,70,75,2.57,ES,1706642637
529,dolinsk,47.35,142.8,-11.82,95,100,1.19,RU,1706642638
530,sohar,24.3643,56.7468,22.88,57,94,0.63,OM,1706642638
531,zavitinsk,50.1167,129.45,-34.16,100,63,1.59,RU,1706642638
532,juan griego,11.0817,-63.9655,37.07,41,100,7.2,VE,1706642639
533,rikaze,29.25,88.8833,-2.83,36,3,1.8,CN,1706642639
534,candido de abreu,-24.5669,-51.3333,33.24,26,27,2.61,BR,1706642639
535,hotan,37.0997,79.9269,-1.36,52,99,3.08,CN,1706642639
536,nalut,30.3333,10.85,10.87,46,91,4.42,LY,1706642640
537,dawson creek,55.7666,-120.2362,8.8,46,0,10.8,CA,1706642640
538,ylitornio,66.3089,23.6773,-0.66,90,72,4.76,FI,1706642640
539,tshabong,-26.05,22.45,29.95,35,98,0.93,BW,1706642640
540,kirensk,57.7853,108.1119,-37.8,100,52,0.89,RU,1706642641
541,alaghsas,17.0187,8.0168,20.72,21,92,7.46,NE,1706642641
542,casa branca,-21.7739,-47.0864,32.46,21,100,2.12,BR,1706642641
543,amungan,15.3652,119.9582,22.96,70,10,2.4,PH,1706642642
544,bafoulabe,13.8065,-10.8321,30.23,10,100,2.48,ML,1706642642
545,veraval,20.9,70.3667,22.13,82,99,5.01,IN,1706642642
546,chukhloma,58.7525,42.6825,-6.06,94,6,2.68,RU,1706642643
547,nguigmi,14.2495,13.1092,22.17,21,60,6.31,NE,1706642643
548,syumsi,57.1111,51.6149,-0.43,85,100,6.63,RU,1706642643
